[
    {
        "name": "US-50 at 291 NB",
        "url": "https://5fca316e7c40f.streamlock.net/live-secure/M050EBIPC-04-LQ.stream/playlist.m3u8",
        "latitude": 38.902,
        "longitude": -94.3614,
        "state": "Missouri"
    },
    {
        "name": "I-470 WB at Blue Pkwy",
        "url": "https://5fca316e7c40f.streamlock.net/live-secure/M470WBC-05-LQ.stream/playlist.m3u8",
        "latitude": 38.9336,
        "longitude": -94.4139,
        "state": "Missouri"
    },
    {
        "name": "I-470 WB at Blue Ridge Blvd",
        "url": "https://5fca316e7c40f.streamlock.net/live-secure/M470WBC-02-LQ.stream/playlist.m3u8",
        "latitude": 38.9475,
        "longitude": -94.4992,
        "state": "Missouri"
    },
    {
        "name": "I-470 SB at Woods Chapel",
        "url": "https://5fca316e7c40f.streamlock.net/live-secure/M470SBC-08-LQ.stream/playlist.m3u8",
        "latitude": 38.9851,
        "longitude": -94.3578,
        "state": "Missouri"
    },
    {
        "name": "I-70 at Odessa",
        "url": "https://sfs03-traveler.modot.mo.gov/rtplive/MODOT_CAM_341/playlist.m3u8",
        "latitude": 39.0073,
        "longitude": -93.9597,
        "state": "Missouri"
    },
    {
        "name": "I-70 at Oak Grove",
        "url": "https://sfs02-traveler.modot.mo.gov/rtplive/MODOT_CAM_340/playlist.m3u8",
        "latitude": 39.0152,
        "longitude": -94.1294,
        "state": "Missouri"
    },
    {
        "name": "I-70 EB past MO-7",
        "url": "https://5fca316e7c40f.streamlock.net/live-secure/M070EBIPC-34-LQ.stream/playlist.m3u8",
        "latitude": 39.0177,
        "longitude": -94.2815,
        "state": "Missouri"
    },
    {
        "name": "I-70 WB before Adams Dairy Pkwy",
        "url": "https://5fca316e7c40f.streamlock.net/live-secure/M070WBIPC-35-LQ.stream/playlist.m3u8",
        "latitude": 39.0278,
        "longitude": -94.245,
        "state": "Missouri"
    },
    {
        "name": "I-70 EB at I-470",
        "url": "https://5fca316e7c40f.streamlock.net/live-secure/M070EBC-27-LQ.stream/playlist.m3u8",
        "latitude": 39.0431,
        "longitude": -94.3642,
        "state": "Missouri"
    },
    {
        "name": "I-435 SB at Raytown Rd",
        "url": "https://5fca316e7c40f.streamlock.net/live-secure/M435SBC-12-LQ.stream/playlist.m3u8",
        "latitude": 39.0496,
        "longitude": -94.4979,
        "state": "Missouri"
    },
    {
        "name": "I-70 WB at Stadium Dr",
        "url": "https://5fca316e7c40f.streamlock.net/live-secure/M070WBIPC-19-LQ.stream/playlist.m3u8",
        "latitude": 39.0497,
        "longitude": -94.4834,
        "state": "Missouri"
    },
    {
        "name": "I-35 NB at Southwest Trfwy",
        "url": "https://5fca316e7c40f.streamlock.net/live-secure/M035NBC-02-LQ.stream/playlist.m3u8",
        "latitude": 39.0772,
        "longitude": -94.5947,
        "state": "Missouri"
    },
    {
        "name": "I-35 NB at Front St",
        "url": "https://5fca316e7c40f.streamlock.net/live-secure/M035NBC-08A-LQ.stream/playlist.m3u8",
        "latitude": 39.1177,
        "longitude": -94.5642,
        "state": "Missouri"
    }
]
